Name,Latitude,Longitude
Abano_Terme,45.35,11.783333
Abbendorf,53.2,9.383333
Abbeville,50.106602,1.832691
Abingdon,51.666667,-1.283333
Achim,53.033333,9.016667
Acquapendente,42.733333,11.866667
Adorf_Vogtland,50.316667,12.266667
Aetna,37.75,15
Agnano,,
Agropoli,40.35,14.983333
Ahnebeck,52.533333,10.9
Ahrensboek,54.016667,10.583333
Ala,45.75,11
Allmannshofen,48.616667,10.8
Alsleben,51.016667,13.5
Alt_Ruppin,52.95,12.85
Altbach,48.733333,9.383333
Altendorf,50.083333,11.166667
Altentreptow,53.683333,13.25
Altona,53.55,9.933333
Amantea,39.133333,16.066667
Amberg,49.441389,11.862222
Amelunxen,51.716667,10.35
Amiens,49.9,2.3
Amoeneburg,50.8,8.9
Amstelveen,52.3,4.866667
Amsterdam,52.35,4.916667
Andersleben,52.016667,11.3
Angermuende,53.033333,14
Ankershagen,53.483333,12.966667
Anklam,53.866667,13.7
Annaburg,51.733333,13.033333
Annarode,51.55,11.4
Arendsee_Altmark,52.6667,12
Arheilgen,49.913333,8.65
Arnsbach,51.05,9.25
Arnstadt,50.833333,10.95
Arnstein,51.683333,11.416667
Arqua_Petrarca,45.2667,11.716667
Arqua_Polesine,45.0167,11.75
Artern,51.366667,11.3
Artlenburg,53.366667,10.5
Asch,47.95,10.833333
Aschersleben,51.75,11.466667
Asdorf,,
Asperg,48.9,9.116667
Asse,52.15,10.65
Atzenhain,50.633333,8.983333
Au_am_Rhein,48.95,8.233333
Auchsesheim,48.683333,10.8
Audorf,52.716667,11.1
Audorf_Oesterreich,48.21812,14.278869999999984
Auenheim,48.6,7.833333
Auerbach,49.398056,9.223333
Augsburg,48.366667,10.883333
Augusta,37.216667,15.216667
Augustusburg,50.816667,13.1
Aurich,53.466667,7.483333
Aussig,50.6833,14
Aversa,40.966667,14.2
Avola,36.9,15.133333
Bad_Doberan,54.1,11.9
Bad_Gottleuba_Berggiesshuebel,50.85,13.95
Bad_Langenbruecken,49.199722,8.644167
Bad_Langensalza,51.1,10.65
Bad_Lauterberg,51.6333,10.4667
Bad_Lippspringe,51.783333,8.816667
Bad_Salzungen,50.816667,10.233333
Bad_Soden-Salmuenster,50.283333,9.366667
Bad_Sooden-Allendorf,51.283333,9.983333
Bad_Tennstedt,51.15,10.833333
Bad_Vilbel,50.183333,8.75
Baden-Baden,48.75,8.25
Bagnara_Calabra,38.283333,15.8
Baierbrunn,48.016667,11.483333
Baiersdorf,49.66,11.030278
Bamberg,47.85,10.016667
Bankewitz,53.033333,10.8
Bar_le_Duc,48.772749,5.161085
Barcino,54.276944,16.962222
Barenburg,52.616667,8.8
Barendorf,53.233333,10.516667
Bargino,43.616667,11.183333
Barkway,52,.016667
Barleben,52.2,11.633333
Barskamp,53.25,10.783333
Barth,54.366667,12.733333
Basilicata,40.5,16.1667
Bassano_del_Grappa,45.766667,11.733333
Bassum,52.85,8.733333
Battaglia_Terme,45.283333,11.783333
Bebenhausen,48.55,9.066667
Beelitz,52.233333,12.966667
Beetzendorf,52.7,11.1
Behringen,51.016667,10.55
Beinheim,48.863265,8.084475
Belgard_Bialogard,54,16
Belgern,51.483333,13.133333
Belmonte_Calabro,39.15,16.083333
Belvedere_Marittimo,39.616667,15.866667
Benediktbeuern,47.7,11.4
Bensheim,49.680278,8.616111
Berck,50.408139,1.577515
Bergamo,45.683333,9.716667
Bergedorf,53.4833,10.2167
Bergen,52.816667,9.966667
Bergen_an_der_Dumme,52.883333,10.966667
Bergheim,47.7,9.416667
Berka,51.35,10.933333
Berlin,52.516667,13.4
Bernau_bei_Berlin,52.6667,13.5833
Bernburg,51.8,11.733333
Bertry,50.08718,3.442982
Besenello,45.933333,11.116667
Besenhorst,53.454716354906445,10.349416136741638
Besse,51.216667,9.383333
Bettenhausen,50.483333,8.833333
Bevern,51.866667,9.5
Biburg,49.033333,11.183333
Bickenbach,49.759167,8.6175
Bienenbuettel,53.133333,10.483333
Bienwald,49.028889,8.136944
Biesenthal,52.766667,13.633333
Bietingheim-Bissingen,48.966667,9.133333
Bispingen,53.083333,10
Bivona,38.7,16.1
Blamont,48.589404,6.843859
Blankenburg,53.216667,13.933333
Bleckede,53.3,10.733333
Blumau,46.5,11.45
Bobbau,51.683333,12.266667
Bobenheim-Roxheim,49.5875,8.357778
Bodenteich,52.833333,10.683333
Bodenwerder,51.966667,9.516667
Boehmisch_Brod_Cesky_Brod,50.0833,14.8667
Boizenburg,53.383333,10.716667
Bologna,44.507,11.351
Bolsena,42.65,11.983333
Bolzano_Bozen,45.971389,13.390833
Borchen,51.65,8.7333
Borghetto,45.6833,10.9333
Borgholz,51.616667,9.266667
Bothmer,52.7,9.6
Botnang,48.783333,9.133333
Boulogne_sur_Mer,50.720702,1.604562
Bozen,46.516667,11.366667
Bozzolo,45.1,10.483333
Bracciano,42.1,12.166667
Brakel,51.716667,9.183333
Braunschweig,52.266667,10.533333
Bremen,48.033333,9.366667
Brenner,47,11.5
Brentford,51.4833,-.3167
Breslau,51.1,17
Bressanone_Brixen,46.716667,11.65
Bretten,49.039167,8.702778
Briatico,38.716667,16.033333
Brixen,46.716667,11.65
Brome,52.6,10.95
Bronzolo,46.4,11.316667
Brosan,50.45374,14.145494
Bruchhausen-Vilsen,52.833333,9
Bruchsal,49.128056,8.583611
Bruck,48.166667,12.75
Brucoli,37.283333,15.183333
Bruex,50.5167,13.65
Buchdorf,48.783333,10.833333
Budin_Budyne_nad_Ohri,50.403889,14.126944
Bueckeburg,52.266667,9.05
Buetow,54.1667,17.4833
Buetzow,,
Bugewitz,53.8,13.833333
Buggiano,42.85,12.9
Bullendorf,53.35,10.566667
Buonconvento,43.133333,11.483333
Burg_Frankenstein,49.8,8.666667
Burg_Stargard,53.5,13.316667
Burg_bei_Magdeburg,52.266667,11.85
Burgau,48.433333,10.4
Burglengenfeld,49.205556,12.041389
Butzbach,50.433333,8.683333
Buxtehude,53.45,9.7
Cagnola,45.283333,11.866667
Calais,50.951241,1.85899
Calbe_Saale,51.9,11.766667
Calliano,45.933333,11.083333
Cambridge,52.2,.116667
Camerota,40.033333,15.366667
Cammin,53.983333,12.35
Canterbury,51.266667,1.083333
Capo_Mulini,37.5667,15.1667
Capo_Passeto,37.716667,15.183333
Capranica,42.25,12.183333
Caprarola,42.3167,12.2333
Capua,41.1,14.2
Carpenedo,45.512778,12.263333
Casalecchio_di_Reno,44.466667,11.266667
Casalnuovo_di_Napoli,40.916667,14.333333
Cascano,41.233333,13.966667
Castel_Gandolfo,41.75,12.65
Castel_Sant_Elmo,40.833333,14.233333
Castelfranco_Emilia,44.616667,11.05
Castellucchio,45.15,10.65
Castiglione,38.983333,16.166667
Castiglione_d_Adda,45.216667,9.683333
Castrocucco,39.916667,15.75
Catania,37.5,15.1
Cava_de_Tirreni,40.7,14.7
Cavacurta,45.183333,9.733333
Celle,52.616667,10.083333
Centeno,42.8,11.816667
Chalons_en_Champagne,48.953926,4.367238
Charlbury,51.866667,-1.466667
Charly_sur_Marne,48.977494,3.284642
Chateau_Thierry,49.05,3.4
Chemnitz,50.833333,12.916667
Chiaia,40.833333,14.25
Chlumtschan,50.334444,13.844167
Chorin,52.916667,13.866667
Chuettlitz,52.866667,11.116667
Cirella,39.716667,15.816667
Cismon_del_Grappa,45.916667,11.733333
Cittadella,45.65,11.783333
Clenze,52.933333,10.95
Clingen,51.216667,10.933333
Cloppenburg,52.85,8.033333
Coburg,50.25,10.966667
Colbatz_Kolbacz,53.301389,14.813611
Colbitz,52.316667,11.616667
Colle_Isarco_Gossensass,46.933333,11.433333
Comino,36,14.3333
Concordia_Sulla_Secchia,44.916667,10.983333
Conselve,45.233333,11.866667
Cori,41.65,12.916667
Cornedo,45.616667,11.333333
Corticella,44.55,11.366667
Corvey_Kloster,51.7667,9.4167
Coswig_Anhalt,51.883333,12.45
Covelo,46.1,11.016667
Creil,49.256722,2.484771
Cremona,45.116667,10.033333
Crivitz,53.583333,11.65
Crock,50.45,10.883333
Cuna,,
Curau,53.95,10.633333
Cyprus,35,33
Dabie_Altdamm,53.395,14.665
Dachstein,48.561559,7.532846
Dalldorf,52.95,10.833333
Damitz_Debica,53.970278,15.592222
Damgarten,54.25,12.466667
Damme,52.516667,8.2
Dannenberg,53.1,11.1
Danzig,54.3667,18.6833
Darmstadt,49.870556,8.649444
Deersheim,51.983333,10.783333
Delft,52,4.366667
Delitzsch,51.533333,12.35
Delmenhorst,53.05,8.616667
Demmin,53.9,13.033333
Den_Haag,52.083333,4.3
Denklingen,47.916667,10.85
Deptford,51.15,-1.983333
Desenzano_del_Grada,45.466667,10.533333
Dessau,51.833333,12.25
Detmold,51.933333,8.883333
Deutschbrod_Havlickuv_Brod,49.6333,15.5667
Deutschhorst,52.816667,10.933333
Diamante,39.683333,15.816667
Diesdorf,51.75,12.15
Dietfurt,48.95,10.933333
Dobbertin,53.633333,12.066667
Dodendorf,52.033333,11.616667
Doemitz,53.133333,11.25
Dolce,45.6,10.85
Dommitzsch,51.65,12.883333
Donauwoerth,48.7,10.8
Dordrecht,51.8,4.666667
Dorfmark,52.916667,9.766667
Dormans,49.076661,3.642256
Dornbach,48.2333,16.3
Dornstadt,48.466667,9.95
Dornstetten,48.45,8.5
Dover,51.133333,1.3
Doxan,50.459444,14.167778
Dragun,53.7,11.216667
Dreilingen,52.916667,10.35
Dreizehnhaan,50.63104,13.710852
Dresden,51.05,13.75
Drusenheim,48.764278,7.950527
Duenkirchen,51.05,2.366667
Dueshorn,52.833333,9.633333
Durlach,49,8.483333
Ebersbach_an_der_Fils,48.716667,9.533333
Eberstadt,49.478056,9.3675
Eberstadt_a,49.815278,8.6425
Ebersteinburg,48.783333,8.266667
Ebsdorf,50.733333,8.816667
Ebsdorfergrund,50.733333,8.866667
Ebstorf,53.033333,10.416667
Eckernfoerde,54.466667,9.833333
Eger_Cheb,50.1333,12.4667
Egna_Neumark,46.316667,11.266667
Ehningen,48.666667,8.933333
Eischleben,50.883333,10.983333
Eisenach,50.983333,10.316667
Eisenberg_Burg,50.283333,9.483333
Eisfeld,50.7333,10.3667
Eldena,53.233333,11.416667
Elexnitz,50.661944,14.118056
Ellingen,49.066667,10.966667
Emersleben,51.933333,11.133333
Endorf,51.716667,11.383333
Engenstein,50.5,10.85
Epernay,49.042267,3.95809
Ercolano,40.8,14.35
Erfurt,50.983333,11.033333
Erlangen,49.589722,11.003889
Ermsleben,51.733333,11.333333
Escaudoeuvres,50.192893,3.266026
Eschede,52.733333,10.25
Essel,53.483333,9.266667
Esslingen_am_Neckar,48.75,9.3
Ettal,47.566667,11.1
Ettenheim,48.25,7.816667
Ettlingen,48.95,8.4
Eutin,54.133333,10.616667
Evessen,52.183333,10.716667
Falkenwalde,53.266667,14
Fallingbostel,52.866667,9.7
Faro_Capo_Vaticano,38.616667,15.833333
Faversham,51.316667,.9
Fehrbellin,52.8,12.766667
Ferrara,44.833333,11.583333
Firenzuola,44.116667,11.383333
Fischbeck,52.133333,9.3
Fiumefreddo_Bruzio,39.233333,16.066667
Flacht,48.833333,8.916667
Flechtingen,52.333333,11.25
Flechtorf,52.35,10.7
Fleckeby,54.483333,9.7
Flensburg,54.783333,9.433333
Flieden,50.416667,9.566667
Flixecourt,50.01465,2.080949
Florenz,43.766667,11.25
Foerden,53.933333,9.783333
Fondi,41.35,13.416667
Fontainebleau,48.405367,2.700199
Fontana,44.8,11.633333
Forchheim,49.723056,11.066944
Formia,41.25,13.616667
Fornace,45.733333,12.65
Foug,48.683748,5.786908
Francolino,44.9,11.666667
Francolise,41.183333,14.05
Frankenberg_Eder,51.0667,8.8167
Frankenthal,49.537222,8.355
Frankfurt_am_Main,50.116667,8.683333
Frantiskovy_Lazne,50.1167,12.35
Franzburg,54.183333,12.883333
Frauenwald,50.583333,10.85
Freiberg,50.916667,13.366667
Friedberg,48,9.416667
Friedberg_Hessen,50.35,8.766667
Friedeburg,53.45,7.833333
Friedland,51.416667,9.933333
Friedrichswalde,53.033333,13.716667
Fritzlar,51.133333,9.283333
Fuerstenfeldbruck,48.183333,11.25
Fuerstenwalde,52.366667,14.066667
Fuerth,49.466667,10.966667
Fulda,50.55,9.666667
Fuscaldo,39.416667,16.033333
Gaeta,41.2,13.583333
Gambsheim,48.691832,7.884563
Gamsen,52.5,10.55
Garda,45.566667,10.7
Gardelegen,52.533333,11.366667
Gartz,53.2,14.383333
Garz,52.85,12.633333
Gebhardshagen,52.1,10.35
Geisa,50.716667,9.966667
Geislingen_an_der_Steige,48.95,10.416667
Gelnhausen,50.2,9.183333
Georgensgmuend,49.189722,11.016667
Gera,50.866667,12.083333
Germersheim,49.223056,8.363889
Gernsheim,49.76,8.495833
Gersthofen,48.416667,10.883333
Giarre,37.716667,15.183333
Gieseritz,52.783333,11.016667
Giessen,47.633333,9.6
Gifhorn,52.483333,10.55
Gilserberg,50.95,9.066667
Gingen_an_der_Fils,48.65,9.783333
Gioia_Tauro,38.416667,15.9
Glandorf,52.083333,8.016667
Glueckstadt,53.783333,9.416667
Gnandstein,51.016667,12.55
Gnoelbzig,51.666667,11.733333
Godau,54.116667,10.383333
Godern,53.616667,11.55
Goehr,52.9,10.883333
Goehrde,53.15,10.883333
Goeppingen,48.7,9.666667
Goettingen,51.533333,9.933333
Goldberg,53.583333,12.083333
Goleniow_Gollnow,53.563611,14.828056
Goltoft,54.55,9.716667
Gonna,51.5,11.316667
Goslar,51.9,10.433333
Gozo,36.05,14.25
Graben-Neudorf,49.170278,8.487778
Grabow,53.266667,12.166667
Grasten,54.9167,9.6167
Gravesend,51.433333,.366667
Grebenstein,51.45,9.416667
Greenwich,51.4833,0
Greussen,51.216667,10.95
Gristow,54.166667,13.333333
Groeningen,51.933333,11.216667
Gross_Denkte,52.15,10.616667
Gross_Eilstorf,52.816667,9.45
Gross_Muehlingen,51.95,11.7
Gross_Muetzelburg,53.645000,14.298400
Gross_Sarau,53.766667,10.733333
Grossen_Linden,50.5333,8.65
Grossenbehringen,51.033333,10.516667
Grossenhain,51.283333,13.55
Grotta_del_Cane,40.833333,14.166667
Gryfice_Greifenberg,53.916111,15.199722
Guardia_Piemontese,39.466667,16
Gudensberg,51.183333,9.366667
Gudow,53.55,10.783333
Guemse,,
Guenstedt,51.216667,11.066667
Guenzburg,48.45,10.266667
Guenzlhofen,48.25,11.15
Guestrow,53.8,12.166667
Guetzkow,53.95,13.416667
Gumtow,52.983333,12.25
Guntersdorf,48.65,16.05
Gyoer,47.687281,17.637616
Habern,15.478889,49.756667
Hagenschiess,48.883333,8.766667
Haguenau,48.814228,7.786232
Halberstadt,51.9,11.05
Halle_an_der_Saale,51.5,12
Hallstadt,49.933333,10.883333
Hamburg,53.55,10
Hameln,52.1,9.35
Hanau,50.133333,8.916667
Hankensbuettel,52.733333,10.6
Hannoversch_Muenden,51.416667,9.683333
Harburg,53.466667,9.983333
Hardenberg,52.566667,6.616667
Hardenberg_a,51.316667,7.083333
Harkerode,51.683333,11.4
Harpe,52.916667,11.566667
Harpstedt,52.9,8.583333
Harste,51.6,9.866667
Hartmannshof,49.5,11.55
Harz,51.75,10.5
Haseluenne,52.666667,7.483333
Hasselroth,50.166667,9.1
Hasselt,52.6,6.1
Hausberge,52.233333,8.916667
Hehlen,51.983333,9.483333
Heidelberg,49.416667,8.7
Heidelsheim,49.101111,8.645
Heiligengrabe,53.15,12.35
Heiligenrode,52.983333,8.7
Heimsheim,48.8,8.85
Heinrichshof,53.716667,13.866667
Heldrungen,51.3,11.216667
Helfenstein,48.616667,9.85
Helmstedt,52.233333,11
Henley_on_Thames,51.533333,-.9
Heppenheim_Bergstrasse,49.640833,8.637222
Herrenberg,48.6,8.866667
Herrlitz,15.730547900000033,49.2308329
Hersbruck,49.5125,11.433889
Herzberg_Mecklenburg_Vorpommern,53.533333,11.933333
Herzogswalde,51.016667,13.5
Hessen,52.016667,10.783333
Hessisch_Oldendorf,52.166667,9.25
Hestedt,52.866667,10.983333
Hinrichshagen_Forst,53.416667,13.5
Hirschaid,49.819444,10.990833
Hitzacker,53.15,11.05
Hockenheim,49.322778,8.545833
Hoefen,50.533333,6.233333
Hoexter,51.766667,9.383333
Hofgeismar,51.483333,9.4
Hohbuehn,48.633333,7.916667
Hohenfurch,47.85,10.9
Hollabrunn,48.5667,16.0833
Holzminden,51.816667,9.45
Horb_am_Neckar,48.433333,8.683333
Horgau,48.4,10.683333
Hounslow,51.5,-.3333
Hoya,52.8,9.15
Hude,53.116667,8.466667
Huttenheim,49.196944,8.466389
Iburg,52.15,8.05
Ichtershausen,50.883333,10.966667
Iglau_Jihlava,51.016667,13.5
Ilmenau,50.683333,10.9
Indien,20,77
Innsbruck,47.2667,11.4
Ir_Rabat,36.045278,14.241667
Istanbul,41.011046,28.957798
Italien,42.8333,12.8333
Itri,41.283333,13.533333
Itzing,48.816667,10.833333
Jersleben,52.25,11.583333
Jerusalem,31.7667,35.2333
Jesewitz,51.433333,12.5
Jessen,51.783333,12.95
Jesteburg,53.3,9.966667
Jettingen,48.3833,10.4333
Jever,53.583333,7.9
Jockgrim,49.098889,8.267778
Jonsdorf,50.85,14.7
Juebar,52.7,10.916667
Jungfernteinitz_Panensky_Tynec,50.3,13.9
Kaiserebersdorf,16.46153030000005,48.14857079999999
Kaisheim,48.766667,10.8
Kakerbeck,52.666667,11.283333
Kalabrien,39,16.5
Kalbe,52.65,11.4
Kalladorf,16.08355000000006,48.64292
Kallendorf_Chvalovice,16.082349300000033,48.7865768
Kaltenbrunn,50.25,11.25
Kamenitz_Kamenice,14.582427400000029,49.9015169
Kamien_Pomorski_Cammin_in_Pommern,53.966667,14.766667
Kampe,53.083333,7.833333
Kannawurf,51.266667,11.133333
Karlino_Koerlin,54.038189,15.876617
Kartuzy_Karthaus,54.35,18.1833
Kassel,51.316667,9.5
Kesselberg,50.083333,11.7
Kiel,54.333333,10.133333
Kilstett,48.675846,7.857598
Kindelbrueck,51.266667,11.083333
Kingston,52.166667,-.033333
Kingston_upon_Thames,51.4167,-.3
Kirch_Goens,50.466667,8.65
Kirchhain,50.816667,8.966667
Kirchheim_unter_Teck,48.65,9.45
Kirchwaerder_Zollenspieker,53.4,10.183333
Klausen,46.633333,11.566667
Kleinsteinbach,48.966667,8.55
Klempenow,53.8,13.316667
Kletzke,53,12.05
Kloster_Mansfeld,51.583333,11.5
Kniebis,48.466667,8.3
Kochel_am_See,47.666667,11.366667
Koeln,50.9333,6.6667
Koenigsborn,52.133333,11.766667
Koenigsdorf,47.816667,11.483333
Koenigslutter,52.25,10.816667
Koepenick_Berlin,52.45,13.566667
Koeslin,54.1667,16.1667
Koethen_Anhalt,51.75,11.966667
Kolin,50.0333,15.1833
Kollmann,48.566667,12
Komotau,50.45,13.4333
Korbach,51.283333,8.866667
Korneuburg,48.3667,16.3333
Koßdorf,51.5,13.233333
Kreppen,48.366667,10.783333
Kriegshaber,48.383333,10.85
Kruen,47.5,11.283333
Krummesse,53.783333,10.65
Kuchen,48.633333,9.8
Kuestrin_Kostrzyn_nad_Odra,52.587222,14.649722
Kuppenheim,48.833333,8.25
Kuttenberg_Kutna_Hora,49.95,15.25
Kyritz,52.95,12.4
La_Ferte_sous_Jouarre,48.951396,3.127242
La_Giudecca,45.433333,12.333333
La_Storta,42,12.383333
La_Wantzenau,48.658697,7.830566
Ladenburg,49.475,8.606944
Lago_Lucrino,40.816667,14.083333
Lago_d_Averno,40.833333,14.066667
Lago_di_Bolsena,42.6,11.933333
Landensberg,48.433333,10.533333
Landkreis_Neu-Ulm_Pfuhl,48.306389,10.152222
Landsberg,51.516667,12.166667
Landsberg_am_Lech,48.05,10.866667
Lang_Goens,50.5,8.666667
Langen,49.993333,8.672778
Langendorf,54.283333,13.016667
Langendorf_a,51.183333,11.966667
Langwedel,52.966667,9.216667
Langweid,48.483333,10.85
Lauenburg,53.366667,10.566667
Lauf_an_der_Pegnitz,49.510278,11.2775
Laun_Louny,50.3667,13.7833
Laun_Louny_a,50.3667,13.7833
Lauterbourg,48.973713,8.180405
Lavis,46.133333,11.116667
Laxenburg,48.0667,16.3667
Leeder,47.933333,10.833333
Lehre,52.333333,10.666667
Leiden,52.15,4.5
Leifers,46.433333,11.333333
Leipzig,51.3333,12.4167
Leitmeritz_Litomerice,50.55,14.1667
Lemgo,52.033333,8.9
Lenzen,53.083333,11.483333
Leonberg,48.8,9.016667
Letzlingen,52.433333,11.5
Leuben,51.01008359999999,13.830690600000025
Lichtenau,48.733333,8.016667
Lichtenau_NRW,51.616667,8.9
Lichtensee,51.383333,13.366667
Lingen,52.516667,7.316667
Linkenheim,49.1167,8.4167
Linkenheim_Hochstetten,49.137222,8.403333
Linum,52.766667,12.866667
Linx,48.616667,7.883333
Livorno,43.55,10.316667
Lizzana,45.85,11.05
Lobositz_Lovosice,50.513056,14.056667
Loecknitz,52.333333,12.933333
Loecknitz_a,53.45,14.216667
Loeningen,52.733333,7.766667
Loiano,44.266667,11.316667
Loitsche,52.3,11.7
Loitz,53.966667,13.133333
Lombardi,41.25,14.466667
London,51.514248,-.093145
Longobardi,39.2,16.066667
Lucca,43.8333,10.2167
Lucignano,43.266667,11.75
Luebberstedt,53.333333,8.8
Luebeck,53.866667,10.7
Luebz,53.45,12.033333
Luechow,52.966667,11.15
Luedershausen,53.35,10.45
Lueg,47.5667,13.2
Lueneburg,53.25,10.4
Luetzensoemmern,51.183333,10.883333
Luetzow,53.65,11.183333
Luhe_Wildenau,49.583333,12.15
Luhmuehlen,53.216667,10.2
Luizhausen,48.516667,9.9
Luneville,48.591172,6.495426
Lutter_am_Barenberge,51.983333,10.266667
Luzarches,49.113192,2.422298
Maehrisch_Budwitz_Moravske_Budejovice,49.0667,15.8167
Magdeburg,52.166667,11.666667
Maidenhead,51.516667,-.7
Mailand,47.85,10.016667
Mainz,50,8.271111
Malamocco,45.715,13.014167
Malamocco_Porto_di,45.336389,12.321667
Malchow,53.483333,12.433333
Malechowo_Malchow,54.3,16.516667
Mallin,53.533333,13.133333
Malo,45.65,11.4
Malsch,48.883333,8.333333
Malta,35.9167,14.4167
Mansfeld,51.583333,11.466667
Mantova,45.15,10.8
Mantua,45.166667,10.783333
Maranola,41.283333,13.616667
Maratea,39.983333,15.7
Marburg,50.816667,8.766667
Marcaria,45.116667,10.533333
Marckolsheim,48.162709,7.544316
Marco,45.85,11
Marienberg,50.65,13.166667
Marienthal,53.733333,13.766667
Marino,41.766667,12.65
Markgroeningen,48.9,9.066667
Marksuhl,50.916667,10.2
Marmirolo,45.216667,10.75
Marquise,50.812943,1.707863
Martinsrieth,51.433333,11.233333
Massa_E,43.9,10.75
Massow,53.316667,12.416667
Maszewo_Massow,53.496111,15.061389
Matrei_am_Brenner,47.1333,11.4667
Mattarello,46,11.116667
Maulbronn,49.000833,8.807778
Mdina,35.8833,14.25
Meaux,48.963579,2.882403
Mecklenburg_Vorpommern,53.75,12.5
Medingen,53.1,10.566667
Meinersen,52.483333,10.366667
Meissen,51.1667,13.4167
Meitingen,48.55,10.85
Melegnano,45.35,9.316667
Melito_di_Napoli,40.916667,14.233333
Memprechtshofen,48.683333,7.983333
Menil_la_Horgne,48.702911,5.526499
Mertingen,48.65,10.783333
Messina,38.183333,15.566667
Middelburg,52.05,4.683333
Minden,52.283333,8.916667
Minturno,41.25,13.75
Mirow,53.266667,12.816667
Mittelstetten,48.25,11.1
Mittenwald,47.433333,11.25
Mittewald,46.7833,12.5833
Modena,44.666667,10.916667
Moelln,53.633333,10.683333
Moelln_a,54.383333,13.283333
Monheim,48.833333,10.833333
Monsummano_Terme,43.866667,10.816667
Montagnano,43.35,11.8
Monte_Cavallo,46.1167,12.4833
Monte_San_Quirico,,
Montebello_Vicentino,45.45,11.383333
Montebuono,42.7,11.65
Montecatini_Terme,43.883333,10.766667
Montefiascone,42.533333,12.033333
Montegaldella,45.433333,11.65
Montelupo_Fiorentino,43.733333,11.016667
Montepulciano,43.083333,11.783333
Monteroni,43.233333,11.416667
Monterosi,42.2,12.3
Monticchiello,43.066667,11.716667
Monticelli,41.4,13.65
Montreuil,50.463874,1.762839
Motta_Camastra,37.9,15.1667
Muehlberg,47.983333,9.983333
Muehlberg_Elbe,51.433333,13.216667
Muehlburg,49.016667,8.35
Muehlstetten,49.15,11.033333
Muenchen,49.55,11.583333
Muenden,51.15,8.75
Muenster,51.966667,7.633333
Muggensturm,48.866667,8.283333
Mules,46.85,11.516667
Munster,53,10.116667
Murano_Isola_di,45.466667,12.35
Nabburg,49.453611,12.178611
Nagold,48.55,8.716667
Namiest_an_der_Oslawa_Namest_nad_Oslavou,49.2167,16.15
Napels,40.833333,14.25
Netherlands,52.5,5.75
Nettancourt,48.876419,4.942672
Nettlebed,51.566667,-.983333
Neu_Darchau,53.233333,10.883333
Neubrandenburg,53.566667,13.266667
Neudamm_Debno,52.7167,14.7
Neudorf_Nova_Ves,50.498611,13.263056
Neuenhaus,52.5,6.966667
Neuenhof,51,10.216667
Neuenkirchen,52.516667,8.066667
Neuenkrug,52.933333,9.383333
Neufchatel,50.620185,1.64223
Neugraben_Fischbek,53.483333,9.866667
Neugrimnitz,52.983333,13.833333
Neuhaus,53.283333,10.933333
Neuhausen,47.75,10.283333
Neuhausen_a,50.666667,13.466667
Neuhof,50.433333,9.616667
Neumarkt_in_der_Oberpfalz,49.280278,11.462778
Neundorf,51.816667,11.566667
Neuneck,48.416667,8.533333
Neusiss,50.75,10.883333
Neustadt_Glewe,53.383333,11.583333
Neustadt_an_der_Waldnaab,49.731389,12.173333
Neustadt_in_Sachsen,51.033333,14.216667
Neustrelitz,53.366667,13.083333
Newport,51.583333,-2.983333
Nicotera,38.55,15.933333
Niedereinsiedel_Dolni_Poustevna,50.983611,14.288611
Niefern_Oeschelbronn,48.916667,8.783333
Nieheim,51.8,9.116667
Nienburg,52.633333,9.216667
Nocera_Inferiore,40.733333,14.633333
Nocera_Terinese,39.033333,16.15
Nordborg,55.0667,9.6833
Nordendorf,48.6,10.8
Northeim,51.7,10
Northfleet,51.433333,.333333
Nuernberg,49.447778,11.068333
Nuertingen,48.633333,9.35
Oberammergau,47.6,11.066667
Oberesslingen,48.733333,9.333333
Oberhausen,48.383333,10.866667
Oberhausen_Rheinhausen,49.273889,8.471667
Oberhaverbeck,53.15,9.916667
Oberkirch,48.533333,8.083333
Obermuehl,49.166667,10.65
Obersdorf,51.516667,11.316667
Obersendling,48.1,11.55
Oberwind,50.483333,10.883333
Obrigheim_Pfalz,49.592222,8.204444
Oelsnitz_Vogtland,50.516,12.4
Oerrel,52.966667,10.183333
Offendorf,48.71138,7.913505
Offenhausen,48.4,9.366667
Oldenburg,53,8
Oldendorf,53.583333,9.25
Oldenstadt,52.983333,10.583333
Oldisleben,51.3,11.166667
Oos,48.7833,8.2
Oppenheim,49.858056,8.367778
Ort,50.233333,11.666667
Oschatz,51.3,13.116667
Osnabrueck,52.266667,8.05
Ospedaletto,46.05,11.55
Ostende,51.223392,2.911854
Osterburg,52.783333,11.766667
Osterwieck,51.966667,10.716667
Ottersberg,53.1,9.15
Overschie,51.933333,4.433333
Oxford,51.75,-1.25
Paderborn,51.716667,8.766667
Padova,45.416667,11.883333
Pagani,40.75,14.616667
Pagny_sur_Meuse,48.687558,5.717589
Palinuro,40.033333,15.283333
Paola,39.35,16.033333
Parchim,53.433333,11.85
Paris,48.866667,2.333333
Parkentin,54.083333, 11.983333
Parona,45.283333,8.75
Pasewalk,53.516667,13.983333
Pasing,48.15,11.45
Pattensen,52.266667,9.766667
Pausin,52.633333,13.033333
Peine,52.316667,10.233333
Peiting,43.8,10.9167
Pellegrino_Parmense,44.733333,9.916667
Penig,50.933333,12.716667
Penzlin,53.5,13.083333
Peri,45.65,10.9
Perleberg,53.066667,11.866667
Peschiera_del_Garda,45.433333,10.7
Pescia,43.9,10.683333
Petersdorf,54.216667,12.433333
Peterswald_Petrovice_u_Chabrovice,50.786944,13.978611
Petterweil,,
Pforzheim,48.883333,8.7
Pfreimd,49.4925,12.179444
Phalsbourg,48.767516,7.256946
Pianoro,44.366667,11.333333
Picquigny,49.944131,2.143764
Pienza,43.066667,11.683333
Pietole,45.116667,10.833333
Pietramala,44.166667,11.333333
Pirna,50.966667,13.933333
Pirnitz,15.676111,49.308333
Pisa,43.716667,10.383333
Pistoia,43.916667,10.9
Pizzighettone,45.183333,9.783333
Pizzo,38.733333,16.166667
Planeis,50.0501042,15.029446300000018
Plate,53.55,11.5
Plau,53.45,12.266667
Plaue,50.783333,10.9
Plauen,50.5,12.133333
Pleinfeld,49.1,10.983333
Plochingen,48.716667,9.416667
Ploetzkau,51.75,11.683333
Plueschow,53.833333,11.266667
Podlesie_Friedrichswalde,53.41831050571862,14.906516075134277
Poelsfeld,51.533333,11.35
Poggibonsi,43.466667,11.15
Poggio_Renatico,44.766667,11.483333
Poggio_a_Caiano,43.816667,11.05
Pohl_Goens,50.466667,8.65
Policastro_Bussentino,40.083333,15.516667
Polna,49.4833,15.7167
Pompei,40.75,14.5
Ponte_Arbia,43.166667,11.466667
Port_a_Binson,49.082024,3.759886
Portici,40.816667,14.333333
Portopalo_di_Capo_Passero,36.683333,15.133333
Postelberg_Postoloprty,50.3667,13.7
Pozzallo,36.716667,14.85
Pozzuoli,40.816667,14.116667
Prag,50.1,14.4333
Preetz,54.35,13.633333
Prenzlau,53.316667,13.866667
Pretzsch,51.716667,12.8
Prezelle,52.966667,11.4
Prignitz,53,12
Primolano,45.966667,11.7
Prislich,53.266667,11.616667
Priverno,41.466667,13.183333
Probstheida,51.3,12.433333
Proceno,42.75,11.833333
Puchheim,48.15,11.35
Pullach_im_Isartal,48.05,11.533333
Pyritz_Pyrzyce,53.15,14.8833
Quedlinburg,51.783333,11.15
Radenbeck,53.216667,10.633333
Radicofani,42.9,11.766667
Rakonitz_Rakovnik,50.1167,13.7333
Rastatt,48.85,8.2
Rattelsdorf,50.016667,10.883333
Ratzeburg,53.7,10.766667
Reading,51.433333,-1
Rebberlah,52.75,10.166667
Regensburg,49.015,12.095556
Regenstauf,49.121667,12.129167
Reggio_di_Calabria,38.1,15.65
Reichenbach_Oberlausitz,51.15,14.8
Reichenschwand,49.516667,11.383333
Reith_bei_Seefeld,47.3,11.2
Remlingen,52.116667,10.666667
Reppenstedt,53.25,10.35
Restorf,53.05,11.45
Rethem,52.783333,9.383333
Retzow,53.783333,12.716667
Rheinzabern,49.118056,8.278056
Ribbesbuettel,52.433333,10.516667
Ried,49.25,12.583333
Riethnordhausen,51.4167,11.2333
Ringelheim,52.033333,10.3
Ribnitz,54.25,12.466667
Rittersbach,,
Rivoltella,45.45,10.55
Roccasecca_dei_Volsci,41.483333,13.216667
Rochester,51.383333,.516667
Roemerkessel,47.966667,10.866667
Roenne,55.1167,14.7167
Roetgesbuettel,52.416667,10.533333
Roevershagen,54.183333,12.233333
Roklum,52.066667,10.733333
Rom,41.9,12.483333
Ronciglione,42.283333,12.216667
Roppenheim,51.866667,11.583333
Rosa,45.716667,11.75
Rosche,52.983333,10.75
Rostock,54.0833,12.1333
Rotenburg_an_der_Fulda,50.983333,9.716667
Rotenburg_an_der_Wuemme,53.116667,9.4
Roth,49.245,11.091111
Rottenbuch,47.733333,10.966667
Rotterdam,51.916667,4.5
Rottweil,48.166667,8.616667
Rovereto,45.883333,11.033333
Rovigo,45.066667,11.783333
Ruegenwalde_Darlowo,54.4167,16.4167
Ruine_Sachsenburg,51.2833,11.1500
Rutesheim,48.8,8.95
Saarburg,48.734217,7.056016
Saarmund,52.316667,13.116667
Sachsenberg,51.933333,11.133333
Saint_Aubin_sur_Aire,48.706566,5.443046
Saint_Denis,51.866667,11.583333
Saint_Georges,48.65771,6.930225
Saint_Germain_en_Laye,48.904194,2.086688
Saint_Nicolas_de_Port,48.63089,6.300385
Salder,52.133333,10.333333
Salerno,39.366667,16.4
Salesel,50.597222,14.043056
Salo_Brescia,45.6,10.516667
Salorno,46.233333,11.216667
Salzburg,47.8,13.05
Salzelmen,52,11.716667
Salzhausen,53.233333,10.166667
Salzwedel,52.85,11.15
Samswegen,52.266667,11.566667
San_Casciano_in_Val_di_Pesa,43.65,11.183333
San_Donnino,47.85,10.016667
San_Giorgio_di_Piano,44.65,11.366667
San_Lorenzo_Nuovo,42.683333,11.9
San_Marino,44.616667,11.416667
San_Martino,42.366667,12.116667
San_Martino_B,44.038889,12.477778
San_Martino_Buon_Albergo,45.416667,11.083333
San_Martino_dall_Argine,45.1,10.516667
San_Miniato,43.6833,10.85
San_Piero_a_Sieve,43.966667,11.316667
San_Pietro_In_Casale,44.7,11.4
San_Quirico_d_Orcia,43.05,11.6
Sande,53.5,8
Sangerhausen,51.466667,11.3
Sant_Alessio_Siculo,37.916667,15.35
Santa_Margherita,45.77,12.893333
Santa_Maria_Capua_Vetere,41.083333,14.25
Sarow,53.8,13.1
Sasso_Marconi,44.4,11.25
Sayda,50.716667,13.416667
Scafati,40.75,14.516667
Scalea,39.816667,15.783333
Scaletta,38.05,15.466667
Scarperia,44,11.35
Schachdorf_Stroebeck,51.916667,10.95
Scharnebeck,53.3,10.516667
Scharnitz,47.3833,11.2833
Scheessel,53.166667,9.483333
Scherzheim,48.716667,8
Schio,45.716667,11.35
Schkeuditz,51.4,12.216667
Schlan_Slany,50.2333,14.0833
Schlan_Slaný,50.2333,14.0833
Schlawe_Slawno,54.3667,16.6667
Schleswig,54.516667,9.55
Schlipsheim,48.383333,10.783333
Schloss_Neuhaus,51.7333,8.7167
Schluechtern,50.35,9.516667
Schnakenbek,53.383333,10.5
Schnega,52.883333,10.883333
Schnersheim,48.65544,7.566753
Schneverdingen,53.116667,9.8
Schoenberg_im_Stubaital,48.733333,9.333333
Schoengrabern,,
Schoenhausen,53.55,13.7
Schoeningen,51.633333,9.666667
Schoeningen_a,,
Schoeppenstedt,52.133333,10.783333
Schoerzingen,48.183333,8.75
Schongau,47.816667,10.9
Schwabach,49.329167,11.025556
Schwandorf,49.326389,12.109722
Schwarzenfeld,49.389444,12.139722
Schweck,52.633333,13.55
Schwedt_Oder,53.066667,14.3
Schwerin,53.633333,11.383333
Scicli,36.783333,14.7
Scilla,38.25,15.716667
Seefeld_in_Tirol,47.35,11.2
Seesen,51.75,10.1833
Segrahn,53.533333,10.783333
Seltz,48.893982,8.106413
Sermoneta,41.55,12.983333
Serravalle_All_adige,45.816667,11.016667
Serravalle_Pistoiese,43.9,10.816667
Sessa,41.233333,13.933333
Sevres,48.822916,2.217569
Sezze,41.5,13.05
Siena,43.318,11.33
Sindfeld,51.533333,8.783333
Singen,47.766667,8.833333
Sirmione,45.483333,10.6
Sittingbourne,51.333333,.75
Sizilien,37.5,14
Slupsk_Stolp,54.4667,17
Soemmerda,51.15,11.1
Soldin_Mysliborz,52.9167,14.8667
Soltau,52.983333,9.833333
Sonderburg,54.9167,9.8
Sottrum,53.116667,9.233333
Spandau_Berlin,52.55,13.2
Spedaletto,43.45,10.766667
Speyer,49.329722,8.427778
Sprendlingen_Dreieich,50,8.7
Stafflach,47.063382,11.488018
Staggia,43.416667,11.183333
Stargard_Stargard_Szczecinski,53.35,15.0167
Stassfurt,51.866667,11.583333
Staufenberg,50.666667,8.716667
Steesow,53.166667,11.533333
Stein,49.416667,11.016667
Steinach,47.1,11.4667
Steinau_an_der_Strasse,50.316667,9.466667
Steinheim,49.983333,8.55
Steinheim_a,51.85,9.1
Stendal,52.6,11.85
Stenderupau,54.633333,9.466667
Stepenitz_Stepnica,53.65,14.6167
Stepenitz_Stepnica_a,53.65,14.6167
Sternberg,,
Stettin,53.4167,14.5333
Stezyca_Stendsitz,54.205278,17.949167
Stollhofen,48.766667,8.05
Stolpe,53.866667,14
Stony_Stratford,52.05,-.85
Storkow,53.316667,14.283333
Stotternheim,51.066667,11.05
Strasburg,53.516667,13.75
Strassburg,48.600381,7.787355
Studzienice_Stuednitz,54.083333,17.566667
Stuttgart,48.766667,9.183333
Suderburg,52.9,10.466667
Suederfahrenstedt,54.583333,9.583333
Suessen,48.6833,9.7667
Syke,52.9,8.833333
Syrakus,37.066667,15.3
Taormina,37.85,15.283333
Tavernelle,43.55,11.166667
Tegernbach,48.583333,11.8
Telgte,52.333333,10.2
Terracina,41.283333,13.25
Tiefenbronn,48.833333,8.8
Tiesmesland,53.183333,10.983333
Tirol,47.25,11.3333
Tirschenreuth,49.8825,12.333056
Torgau,51.566667,13
Torgelow,53.633333,14.016667
Torniella,43.066667,11.15
Torre_Annunziata,40.75,14.45
Torre_Faro,38.266667,15.583333
Torre_del_Greco,40.783333,14.366667
Torrenieri,43.083333,11.55
Toscolano_Maderno_Benacum,45.633333,10.583333
Toul,48.674594,5.892905
Trebitsch_Trebic,49.2333,15.8833
Trento,46.066667,11.133333
Treuenbrietzen,52.1,12.866667
Treysa,50.916667,9.2
Tripkau,53.1,11.033333
Tropea,38.683333,15.9
Tschaslau_Caslav,49.9333,15.4
Tuebingen,48.533333,9.05
Uchte,52.5,8.916667
Uckermark,53.116667,13.5
Ueckermuende,53.733333,14.05
Uelzen,52.966667,10.566667
Uetersen,53.683333,9.666667
Uffeln,52.166667,8.866667
Ulm,48.4,10
Unterammergau,47.616667,11.033333
Unterknoeringen,48.433333,10.383333
Unterlauter,50.3,10.983333
Untertuerkheim,48.783333,9.266667
Urspring,48.55,9.9
Uvaly,50.0833,14.75
Vahr,53.083333,8.883333
Vaihingen,48.733333,9.1
Vaihingen_an_der_Enz,48.933333,8.966667
Valetta,35.9,14.5333
Varel,52.7333,8.2833
Vechta,52.716667,8.283333
Veere,51.55,3.666667
Vehlen,52.266667,9.1
Velletri,47.85,10.016667
Velvary,50.2833,14.25
Velvary_a,50.2833,14.25
Venedig,45.438611,12.326667
Verden,52.916667,9.233333
Vergato,44.283333,11.116667
Verguenne,53.15,11.1
Verona,45.45,11
Viareggio,43.866667,10.233333
Vibo_Valentia,,
Vicenza,45.55,11.55
Vienna,48.2167,16.3667
Vierraden,53.1,14.3
Vietri_Sul_Mare,40.666667,14.733333
Villafranca_di_Verona,45.35,10.833333
Villanova,46.257778,12.311111
Vipiteno,46.9,11.433333
Visselhoevede,52.983333,9.6
Viterbo,42.416667,12.1
Vlissingen,51.45,3.583333
Voerden,52.483333,8.1
Void_Vacon,48.688442,5.619208
Volargne,45.55,10.816667
Vorsfelde,52.45,10.8667
Waging,47.933333,12.733333
Walchensee,47.583333,11.316667
Walchensee_See,47.583333,11.35
Waldeck,51.2,9.066667
Waldenbuch,48.633333,9.133333
Wallgau,47.516667,11.283333
Wallhausen,51.466667,11.2
Wallingford,51.6,-1.133333
Wallmoden,52.033333,10.316667
Walsrode,52.866667,9.6
Waltershausen,50.9,10.566667
Waltersleben,50.916667,11.033333
Wandlitz,52.75,13.45
Warburg,51.5,9.166667
Ware,51.8,-.033333
Warnemuende,54.166667, 12.083333
Warpke,52.866667,10.866667
Wehingen,48.15,8.8
Weida,50.766667,12.066667
Weiden,50.033333,11.233333
Weil_der_Stadt,48.75,8.866667
Weiler,48.9,9.366667
Weinheim,49.548333,8.666111
Weissenburg_in_Bayern,49.033333,10.983333
Weissensee,51.183333,11.066667
Wels,48.1667,14.0333
Wendisch_Priborn,53.333333,12.283333
Westendorf,48.566667,10.833333
Westminster,51.485,-.135
Wetter_Hessen,50.9,8.716667
Wetzlar,50.55,8.5
Wieren,52.883333,10.65
Wietzendorf,52.916667,9.983333
Wilburgstetten,49.033333,10.383333
Wildeshausen,52.9,8.433333
Wilferdingen,48.95,8.566667
Wilten,47.25,11.423
Windsor,51.483333,-.6
Winsen,53.366667,10.216667
Wipshausen,52.383333,10.366667
Wirtheim,50.216667,9.266667
Wittenberg,51.812222,12.805278
Wittingen,52.733333,10.716667
Wittmar,52.133333,10.633333
Wittstock_Dosse,53.15,12.5
Woldegk,53.466667,13.583333
Wolfartsweier,48.966667,8.45
Wolfenbuettel,52.166667,10.55
Wolfratshausen,47.916667,11.416667
Wolfsburg,52.433333,10.8
Wolfshagen,54.233333,12.85
Wolgast,54.05,13.766667
Wollershausen,51.6,10.25
Wollin_Wolin,53.85,14.6333
Wolmirstedt,52.25,11.633333
Woltersdorf,52.95,11.216667
Woodstock,51.85,-1.316667
Worms,49.635556,8.359722
Wredenhagen,53.3,12.516667
Wuerttemberg,,
Wundersleben,51.15,11.033333
Wurzen,51.366667,12.733333
Wusterhausen_Dosse,52.7167,12.4667
Zabern,48.740039,7.365086
Zapel,53.55,11.666667
Zeeland,51.4167,3.75
Zeitz,51.05,12.15
Zerbst_Anhalt,51.966667,12.083333
Zeutern_OElberg,49.176111,8.674167
Ziesar,52.266667,12.283333
Zinnowitz,54.066667,13.9
Zirl,47.2833,11.2667
Znaim_Znojom,48.8667,16.0667
Zoerbig,51.633333,12.116667
Zschopau,50.75,13.066667
Zusmarshausen,48.4,10.6
Zwenkau,51.216667,12.316667
Zwingenberg,49.726389,8.618611
Zwolle,52.033333,6.65
